{"features": [{"geometry": {"coordinates": [-73.84272179999999, 40.8974227], "type": "Point"}, "properties": {"address": "2069 PITMAN AVENUE"}, "type": "Feature"}, {"geometry": {"coordinates": [-73.87529909999999, 40.8723369], "type": "Point"}, "properties": {"address": "3158 WEBSTER AVENUE"}, "type": "Feature"}, {"geometry": {"coordinates": [-74.0027593, 40.7360929], "type": "Point"}, "properties": {"address": "232 WEST 11 STREET"}, "type": "Feature"}, {"geometry": {"coordinates": [-73.87134999999999, 40.755427], "type": "Point"}, "properties": {"address": "96-13 34 AVENUE"}, "type": "Feature"}, {"geometry": {"coordinates": [-73.9644643, 40.6816152], "type": "Point"}, "properties": {"address": "WASHINGTON AVENUE"}, "type": "Feature"}, {"geometry": {"coordinates": [-74.014974, 40.64462], "type": "Point"}, "properties": {"address": "5314 4 AVENUE"}, "type": "Feature"}, {"geometry": {"coordinates": [-73.83441599999999, 40.6981899], "type": "Point"}, "properties": {"address": "114-10 JAMAICA AVENUE"}, "type": "Feature"}, {"geometry": {"coordinates": [-73.8501206, 40.8715594], "type": "Point"}, "properties": {"address": "1271 BURKE AVENUE"}, "type": "Feature"}, {"geometry": {"coordinates": [-73.8859149, 40.6365375], "type": "Point"}, "properties": {"address": "10201 SEAVIEW AVENUE"}, "type": "Feature"}, {"geometry": {"coordinates": [-73.95071, 40.673206], "type": "Point"}, "properties": {"address": "812 PARK PLACE"}, "type": "Feature"}, {"geometry": {"coordinates": [-73.9500341, 40.664241], "type": "Point"}, "properties": {"address": "357 EMPIRE BOULEVARD"}, "type": "Feature"}, {"geometry": {"coordinates": [-73.9228436, 40.8412786], "type": "Point"}, "properties": {"address": "NELSON AVENUE"}, "type": "Feature"}, {"geometry": {"coordinates": [-73.93295309999999, 40.6366449], "type": "Point"}, "properties": {"address": "1000 EAST 46 STREET"}, "type": "Feature"}, {"geometry": {"coordinates": [-73.7556506, 40.6001584], "type": "Point"}, "properties": {"address": "506 BEACH 22 STREET"}, "type": "Feature"}, {"geometry": {"coordinates": [-73.8465678, 40.8781224], "type": "Point"}, "properties": {"address": "3450 EASTCHESTER ROAD"}, "type": "Feature"}, {"geometry": {"coordinates": [-75.981715, 43.648635], "type": "Point"}, "properties": {"address": "103 MC KIBBIN STREET"}, "type": "Feature"}, {"geometry": {"coordinates": [-73.861234, 40.814819], "type": "Point"}, "properties": {"address": "1820 LACOMBE AVENUE"}, "type": "Feature"}, {"geometry": {"coordinates": [-73.90770499999999, 40.846563], "type": "Point"}, "properties": {"address": "1787 WEEKS AVENUE"}, "type": "Feature"}, {"geometry": {"coordinates": [-73.9169196, 40.8443214], "type": "Point"}, "properties": {"address": "45 GOBLE PLACE"}, "type": "Feature"}, {"geometry": {"coordinates": [-73.90539220000001, 40.8468893], "type": "Point"}, "properties": {"address": "1800 TOPPING AVENUE"}, "type": "Feature"}, {"geometry": {"coordinates": [-73.903492, 40.66901439999999], "type": "Point"}, "properties": {"address": "229 POWELL STREET"}, "type": "Feature"}, {"geometry": {"coordinates": [-73.8309821, 40.8803043], "type": "Point"}, "properties": {"address": "1010 BAYCHESTER AVENUE"}, "type": "Feature"}, {"geometry": {"coordinates": [-73.95113700000002, 40.644766], "type": "Point"}, "properties": {"address": "2716 BEVERLY ROAD"}, "type": "Feature"}, {"geometry": {"coordinates": [-73.9328195, 40.62767230000001], "type": "Point"}, "properties": {"address": "4422 AVENUE J"}, "type": "Feature"}, {"geometry": {"coordinates": [-73.99205239999999, 40.7604797], "type": "Point"}, "properties": {"address": "410 WEST 45 STREET"}, "type": "Feature"}, {"geometry": {"coordinates": [-73.992004, 40.7193992], "type": "Point"}, "properties": {"address": "43 DELANCEY STREET"}, "type": "Feature"}, {"geometry": {"coordinates": [-73.899467, 40.84510299999999], "type": "Point"}, "properties": {"address": "1815 WASHINGTON AVENUE"}, "type": "Feature"}, {"geometry": {"coordinates": [-73.92942649999999, 40.6586325], "type": "Point"}, "properties": {"address": "899 WINTHROP STREET"}, "type": "Feature"}, {"geometry": {"coordinates": [-73.9298139, 40.643044], "type": "Point"}, "properties": {"address": "1210 UTICA AVENUE"}, "type": "Feature"}, {"geometry": {"coordinates": [-73.814375, 40.748079], "type": "Point"}, "properties": {"address": "140-37 POPLAR AVENUE"}, "type": "Feature"}, {"geometry": {"coordinates": [-73.7516921, 40.6800789], "type": "Point"}, "properties": {"address": "217-03 MERRICK BOULEVARD"}, "type": "Feature"}, {"geometry": {"coordinates": [-73.81367000000002, 40.747938], "type": "Point"}, "properties": {"address": "140-50 POPLAR AVENUE"}, "type": "Feature"}, {"geometry": {"coordinates": [-73.87149099999999, 40.75541200000001], "type": "Point"}, "properties": {"address": "96-09 34 AVENUE"}, "type": "Feature"}, {"geometry": {"coordinates": [-73.9064741, 40.8503383], "type": "Point"}, "properties": {"address": "165 ECHO PLACE"}, "type": "Feature"}, {"geometry": {"coordinates": [-73.9918517, 40.687612], "type": "Point"}, "properties": {"address": "130 BOERUM STREET"}, "type": "Feature"}, {"geometry": {"coordinates": [-73.890472, 40.702107], "type": "Point"}, "properties": {"address": "65-02 CENTRAL AVENUE"}, "type": "Feature"}, {"geometry": {"coordinates": [-74.1916574, 40.5312078], "type": "Point"}, "properties": {"address": "940 HUGUENOT AVENUE"}, "type": "Feature"}, {"geometry": {"coordinates": [-73.9765757, 40.67981229999999], "type": "Point"}, "properties": {"address": "38 PROSPECT PLACE"}, "type": "Feature"}, {"geometry": {"coordinates": [-73.812991, 40.754516], "type": "Point"}, "properties": {"address": "147-15 46 AVENUE"}, "type": "Feature"}, {"geometry": {"coordinates": [-73.86740429999999, 40.8738806], "type": "Point"}, "properties": {"address": "3323 WHITE PLAINS ROAD"}, "type": "Feature"}, {"geometry": {"coordinates": [-73.90724999999999, 40.7436837], "type": "Point"}, "properties": {"address": "41-32 58 STREET"}, "type": "Feature"}, {"geometry": {"coordinates": [-73.935273, 40.802011], "type": "Point"}, "properties": {"address": "237 EAST 123 STREET"}, "type": "Feature"}, {"geometry": {"coordinates": [-73.907307, 40.743875], "type": "Point"}, "properties": {"address": "41-26 58 STREET"}, "type": "Feature"}, {"geometry": {"coordinates": [-73.87159799999999, 40.7554], "type": "Point"}, "properties": {"address": "96-07 34 AVENUE"}, "type": "Feature"}, {"geometry": {"coordinates": [-73.8905659, 40.6328101], "type": "Point"}, "properties": {"address": "9520 SEAVIEW AVENUE"}, "type": "Feature"}, {"geometry": {"coordinates": [-73.91650609999999, 40.8364463], "type": "Point"}, "properties": {"address": "1275 GRAND CONCOURSE"}, "type": "Feature"}, {"geometry": {"coordinates": [-73.8621284, 40.84579979999999], "type": "Point"}, "properties": {"address": "800 MORRIS PARK AVENUE"}, "type": "Feature"}, {"geometry": {"coordinates": [-73.89920699999999, 40.824693], "type": "Point"}, "properties": {"address": "1042 PROSPECT AVENUE"}, "type": "Feature"}, {"geometry": {"coordinates": [-73.85002159999999, 40.87188829999999], "type": "Point"}, "properties": {"address": "1266 EAST GUN HILL ROAD"}, "type": "Feature"}, {"geometry": {"coordinates": [-73.8964876, 40.825154], "type": "Point"}, "properties": {"address": "1064 INTERVALE AVENUE"}, "type": "Feature"}, {"geometry": {"coordinates": [-73.858007, 40.880961], "type": "Point"}, "properties": {"address": "3743 BRONXWOOD AVENUE"}, "type": "Feature"}, {"geometry": {"coordinates": [-73.92167359999999, 40.8661581], "type": "Point"}, "properties": {"address": "111 VERMILYEA AVENUE"}, "type": "Feature"}, {"geometry": {"coordinates": [-73.867161, 40.757179], "type": "Point"}, "properties": {"address": "101-04 NORTHERN BOULEVARD"}, "type": "Feature"}, {"geometry": {"coordinates": [-73.951157, 40.644512], "type": "Point"}, "properties": {"address": "2721 CORTELYOU ROAD"}, "type": "Feature"}, {"geometry": {"coordinates": [-74.191537, 40.531068], "type": "Point"}, "properties": {"address": "944 HUGUENOT AVENUE"}, "type": "Feature"}, {"geometry": {"coordinates": [-73.7783266, 40.6918423], "type": "Point"}, "properties": {"address": "LINDEN BOULEVARD"}, "type": "Feature"}, {"geometry": {"coordinates": [-73.9218526, 40.8438262], "type": "Point"}, "properties": {"address": "1440 PLIMPTON AVENUE"}, "type": "Feature"}, {"geometry": {"coordinates": [-73.87138139999999, 40.7552193], "type": "Point"}, "properties": {"address": "96-11 34 AVENUE"}, "type": "Feature"}, {"geometry": {"coordinates": [-73.851238, 40.891703], "type": "Point"}, "properties": {"address": "909 EAST 233 STREET"}, "type": "Feature"}, {"geometry": {"coordinates": [-73.8568109, 40.692211], "type": "Point"}, "properties": {"address": "87-11 87 STREET"}, "type": "Feature"}, {"geometry": {"coordinates": [-73.9060579, 40.7055705], "type": "Point"}, "properties": {"address": "1927 GATES AVENUE"}, "type": "Feature"}], "properties": {"addresses": "61"}, "type": "FeatureCollection"}