{"features": [{"geometry": {"coordinates": [-73.9468, 40.6641653], "type": "Point"}, "properties": {"address": "EMPIRE BOULEVARD"}, "type": "Feature"}, {"geometry": {"coordinates": [-73.95477249999999, 40.6502072], "type": "Point"}, "properties": {"address": "11 WOODS PLACE"}, "type": "Feature"}, {"geometry": {"coordinates": [-73.7696046, 40.6798301], "type": "Point"}, "properties": {"address": "128-10 174 PLACE"}, "type": "Feature"}, {"geometry": {"coordinates": [-73.88715400000001, 40.814666], "type": "Point"}, "properties": {"address": "1281 SPOFFORD AVENUE"}, "type": "Feature"}, {"geometry": {"coordinates": [-73.95023619999999, 40.7021766], "type": "Point"}, "properties": {"address": "80 UNION AVENUE"}, "type": "Feature"}, {"geometry": {"coordinates": [-73.88719900000001, 40.814818], "type": "Point"}, "properties": {"address": "710 COSTER STREET"}, "type": "Feature"}, {"geometry": {"coordinates": [-73.981623, 40.6008107], "type": "Point"}, "properties": {"address": "113 AVENUE"}, "type": "Feature"}, {"geometry": {"coordinates": [-73.7771813, 40.6884892], "type": "Point"}, "properties": {"address": "115-50 MERRICK BOULEVARD"}, "type": "Feature"}, {"geometry": {"coordinates": [-73.882267, 40.6703819], "type": "Point"}, "properties": {"address": "515 ELTON STREET"}, "type": "Feature"}, {"geometry": {"coordinates": [-73.9475266, 40.6639501], "type": "Point"}, "properties": {"address": "434 EMPIRE BOULEVARD"}, "type": "Feature"}, {"geometry": {"coordinates": [-73.9143275, 40.8252824], "type": "Point"}, "properties": {"address": "910 COURTLANDT AVENUE"}, "type": "Feature"}, {"geometry": {"coordinates": [-73.904658, 40.829895], "type": "Point"}, "properties": {"address": "1192 FULTON AVENUE"}, "type": "Feature"}, {"geometry": {"coordinates": [-73.96620399999999, 40.76439999999999], "type": "Point"}, "properties": {"address": "817 LEXINGTON AVENUE"}, "type": "Feature"}, {"geometry": {"coordinates": [-73.730835, 40.69238199999999], "type": "Point"}, "properties": {"address": "230-11 LINDEN BOULEVARD"}, "type": "Feature"}, {"geometry": {"coordinates": [-73.910521, 40.6586659], "type": "Point"}, "properties": {"address": "871 THOMAS S BOYLAND ST"}, "type": "Feature"}, {"geometry": {"coordinates": [-73.77118399999999, 40.68322], "type": "Point"}, "properties": {"address": "172-55 BROCHER ROAD"}, "type": "Feature"}, {"geometry": {"coordinates": [-73.953429, 40.670489], "type": "Point"}, "properties": {"address": "447 EASTERN PARKWAY"}, "type": "Feature"}, {"geometry": {"coordinates": [-73.9220591, 40.65037], "type": "Point"}, "properties": {"address": "5810 SNYDER AVENUE"}, "type": "Feature"}, {"geometry": {"coordinates": [-73.930747, 40.67556], "type": "Point"}, "properties": {"address": "92 UTICA AVENUE"}, "type": "Feature"}, {"geometry": {"coordinates": [-73.9474819, 40.676508], "type": "Point"}, "properties": {"address": "100 NEW YORK AVENUE"}, "type": "Feature"}, {"geometry": {"coordinates": [-73.89700119999999, 40.6744942], "type": "Point"}, "properties": {"address": "138 PENNSYLVANIA AVENUE"}, "type": "Feature"}, {"geometry": {"coordinates": [-73.984701, 40.577967], "type": "Point"}, "properties": {"address": "2835 WEST 17 STREET"}, "type": "Feature"}, {"geometry": {"coordinates": [-73.745856, 40.679844], "type": "Point"}, "properties": {"address": "131-72 223 STREET"}, "type": "Feature"}, {"geometry": {"coordinates": [-73.92396219999999, 40.69997970000001], "type": "Point"}, "properties": {"address": "171 WILSON AVENUE"}, "type": "Feature"}, {"geometry": {"coordinates": [-73.9286283, 40.6351851], "type": "Point"}, "properties": {"address": "GLENWOOD ROAD"}, "type": "Feature"}, {"geometry": {"coordinates": [-73.936467, 40.69009], "type": "Point"}, "properties": {"address": "GREENE AVENUE"}, "type": "Feature"}, {"geometry": {"coordinates": [-73.984644, 40.577671], "type": "Point"}, "properties": {"address": "2851 WEST 17 STREET"}, "type": "Feature"}, {"geometry": {"coordinates": [-73.7894479, 40.687505], "type": "Point"}, "properties": {"address": "157-18 MEYER AVENUE"}, "type": "Feature"}, {"geometry": {"coordinates": [-73.92254, 40.692293], "type": "Point"}, "properties": {"address": "977 BUSHWICK AVENUE"}, "type": "Feature"}, {"geometry": {"coordinates": [-73.9684573, 40.7507457], "type": "Point"}, "properties": {"address": "418 EAST 45 STREET"}, "type": "Feature"}, {"geometry": {"coordinates": [-73.82596, 40.6906279], "type": "Point"}, "properties": {"address": "97-21 LEFFERTS BOULEVARD"}, "type": "Feature"}, {"geometry": {"coordinates": [-73.86758549999999, 40.6629705], "type": "Point"}, "properties": {"address": "901 PINE STREET"}, "type": "Feature"}, {"geometry": {"coordinates": [-73.904327, 40.644125], "type": "Point"}, "properties": {"address": "9417 GLENWOOD ROAD"}, "type": "Feature"}, {"geometry": {"coordinates": [-73.92225599999999, 40.66001199999999], "type": "Point"}, "properties": {"address": "1089 CLARKSON AVENUE"}, "type": "Feature"}, {"geometry": {"coordinates": [-73.798957, 40.70769], "type": "Point"}, "properties": {"address": "88-32 163 STREET"}, "type": "Feature"}, {"geometry": {"coordinates": [-73.9533469, 40.670604], "type": "Point"}, "properties": {"address": "168 ROGERS AVENUE"}, "type": "Feature"}, {"geometry": {"coordinates": [-73.778048, 40.675534], "type": "Point"}, "properties": {"address": "131-10 GUY R BREWER BLVD"}, "type": "Feature"}, {"geometry": {"coordinates": [-73.74399369999999, 40.6728272], "type": "Point"}, "properties": {"address": "228-20 137 AVENUE"}, "type": "Feature"}, {"geometry": {"coordinates": [-73.7828414, 40.5929108], "type": "Point"}, "properties": {"address": "52-05 ROCKAWAY BEACH BLVD"}, "type": "Feature"}, {"geometry": {"coordinates": [-73.953361, 40.670448], "type": "Point"}, "properties": {"address": "451 EASTERN PARKWAY"}, "type": "Feature"}, {"geometry": {"coordinates": [-73.73219499999999, 40.718975], "type": "Point"}, "properties": {"address": "96-20 222 STREET"}, "type": "Feature"}, {"geometry": {"coordinates": [-73.967524, 40.7631768], "type": "Point"}, "properties": {"address": "778 LEXINGTON AVENUE"}, "type": "Feature"}, {"geometry": {"coordinates": [-73.85413799999999, 40.899254], "type": "Point"}, "properties": {"address": "4421 WHITE PLAINS ROAD"}, "type": "Feature"}, {"geometry": {"coordinates": [-73.9550732, 40.6496457], "type": "Point"}, "properties": {"address": "28 WOODS PLACE"}, "type": "Feature"}, {"geometry": {"coordinates": [-73.9752541, 40.75259860000001], "type": "Point"}, "properties": {"address": "424 LEXINGTON AVENUE"}, "type": "Feature"}, {"geometry": {"coordinates": [-73.744545, 40.67328699999999], "type": "Point"}, "properties": {"address": "227-20 137 AVENUE"}, "type": "Feature"}, {"geometry": {"coordinates": [-73.96032, 40.773008], "type": "Point"}, "properties": {"address": "LEXINGTON AVENUE"}, "type": "Feature"}, {"geometry": {"coordinates": [-73.937699, 40.6977369], "type": "Point"}, "properties": {"address": "9 LEWIS AVENUE"}, "type": "Feature"}, {"geometry": {"coordinates": [-73.9502421, 40.7019335], "type": "Point"}, "properties": {"address": "72 UNION AVENUE"}, "type": "Feature"}, {"geometry": {"coordinates": [-73.97384, 40.68468499999999], "type": "Point"}, "properties": {"address": "161 SOUTH PORTLAND AVE"}, "type": "Feature"}, {"geometry": {"coordinates": [-73.94734199999999, 40.8290676], "type": "Point"}, "properties": {"address": "560 WEST 150 STREET"}, "type": "Feature"}, {"geometry": {"coordinates": [-73.9765082, 40.7231124], "type": "Point"}, "properties": {"address": "417 7 STREET"}, "type": "Feature"}, {"geometry": {"coordinates": [-73.7641699, 40.697968], "type": "Point"}, "properties": {"address": "189-02 113 AVENUE"}, "type": "Feature"}, {"geometry": {"coordinates": [-73.760797, 40.699167], "type": "Point"}, "properties": {"address": "113 ROAD"}, "type": "Feature"}, {"geometry": {"coordinates": [-73.9161921, 40.64979], "type": "Point"}, "properties": {"address": "9001 AVENUE B"}, "type": "Feature"}, {"geometry": {"coordinates": [-81.2506823, 34.9895317], "type": "Point"}, "properties": {"address": "222 STREET"}, "type": "Feature"}, {"geometry": {"coordinates": [-73.95250899999999, 40.678279], "type": "Point"}, "properties": {"address": "1317 BEDFORD AVENUE"}, "type": "Feature"}, {"geometry": {"coordinates": [-73.92237999999999, 40.659915], "type": "Point"}, "properties": {"address": "1083 CLARKSON AVENUE"}, "type": "Feature"}, {"geometry": {"coordinates": [-73.8689471, 40.8441489], "type": "Point"}, "properties": {"address": "620 MORRIS PARK AVENUE"}, "type": "Feature"}, {"geometry": {"coordinates": [-73.92796899999999, 40.632627], "type": "Point"}, "properties": {"address": "1627 UTICA AVENUE"}, "type": "Feature"}, {"geometry": {"coordinates": [-73.79925, 40.70778], "type": "Point"}, "properties": {"address": "88-24 163 STREET"}, "type": "Feature"}, {"geometry": {"coordinates": [-73.7319353, 40.7180475], "type": "Point"}, "properties": {"address": "96-50 222 STREET"}, "type": "Feature"}, {"geometry": {"coordinates": [-73.8689768, 40.7575566], "type": "Point"}, "properties": {"address": "99-13 NORTHERN BOULEVARD"}, "type": "Feature"}, {"geometry": {"coordinates": [-73.931253, 40.676097], "type": "Point"}, "properties": {"address": "1711 DEAN STREET"}, "type": "Feature"}, {"geometry": {"coordinates": [-73.89822099999999, 40.6977853], "type": "Point"}, "properties": {"address": "1834 DECATUR STREET"}, "type": "Feature"}, {"geometry": {"coordinates": [-73.92410509999999, 40.6704956], "type": "Point"}, "properties": {"address": "1603 ST JOHNS PLACE"}, "type": "Feature"}, {"geometry": {"coordinates": [-73.9347313, 40.80525], "type": "Point"}, "properties": {"address": "2792 3 AVENUE"}, "type": "Feature"}, {"geometry": {"coordinates": [-73.9307055, 40.6581818], "type": "Point"}, "properties": {"address": "623 UTICA AVENUE"}, "type": "Feature"}, {"geometry": {"coordinates": [-73.96002639999999, 40.6870806], "type": "Point"}, "properties": {"address": "384 CLASSON AVENUE"}, "type": "Feature"}, {"geometry": {"coordinates": [-73.955012, 40.650173], "type": "Point"}, "properties": {"address": "2414 CHURCH AVENUE"}, "type": "Feature"}, {"geometry": {"coordinates": [-73.98209709999999, 40.7367122], "type": "Point"}, "properties": {"address": "261 EAST 21 STREET"}, "type": "Feature"}, {"geometry": {"coordinates": [-73.9225115, 40.6923134], "type": "Point"}, "properties": {"address": "975 BUSHWICK AVENUE"}, "type": "Feature"}, {"geometry": {"coordinates": [-73.881592, 40.7352073], "type": "Point"}, "properties": {"address": "467 GRAND AVENUE"}, "type": "Feature"}, {"geometry": {"coordinates": [-74.0850454, 40.6169214], "type": "Point"}, "properties": {"address": "420 TARGEE STREET"}, "type": "Feature"}, {"geometry": {"coordinates": [-73.930812, 40.675605], "type": "Point"}, "properties": {"address": "1726 DEAN STREET"}, "type": "Feature"}, {"geometry": {"coordinates": [-73.8012986, 40.67586], "type": "Point"}, "properties": {"address": "120-02 140 STREET"}, "type": "Feature"}, {"geometry": {"coordinates": [-73.7397366, 40.7210357], "type": "Point"}, "properties": {"address": "217-10 93 AVENUE"}, "type": "Feature"}], "properties": {"addresses": "79"}, "type": "FeatureCollection"}