{"features": [{"geometry": {"coordinates": [-74.08503875733902, 40.61691331734133], "type": "Point"}, "properties": {"address": "420 TARGEE STREET"}, "type": "Feature"}, {"geometry": {"coordinates": [-73.92191710990421, 40.65037997421539], "type": "Point"}, "properties": {"address": "5810 SNYDER AVENUE"}, "type": "Feature"}, {"geometry": {"coordinates": [-73.7308555116629, 40.69239699091559], "type": "Point"}, "properties": {"address": "230-11 LINDEN BOULEVARD"}, "type": "Feature"}, {"geometry": {"coordinates": [-73.9307094314268, 40.65816706553422], "type": "Point"}, "properties": {"address": "623 UTICA AVENUE"}, "type": "Feature"}, {"geometry": {"coordinates": [-73.7989746307443, 40.70769277893381], "type": "Point"}, "properties": {"address": "88-32 163 STREET"}, "type": "Feature"}, {"geometry": {"coordinates": [-73.73990693944839, 40.72099641128161], "type": "Point"}, "properties": {"address": "217-10 93 AVENUE"}, "type": "Feature"}, {"geometry": {"coordinates": [-73.94411707145767, 40.688226913183705], "type": "Point"}, "properties": {"address": "424 LEXINGTON AVENUE"}, "type": "Feature"}, {"geometry": {"coordinates": [-73.91425781300143, 40.82523447756911], "type": "Point"}, "properties": {"address": "910 COURTLANDT AVENUE"}, "type": "Feature"}, {"geometry": {"coordinates": [-73.94736655156844, 40.829025581130686], "type": "Point"}, "properties": {"address": "560 WEST 150 STREET"}, "type": "Feature"}, {"geometry": {"coordinates": [-74.158352674174, 40.63491840986478], "type": "Point"}, "properties": {"address": "72 UNION AVENUE"}, "type": "Feature"}, {"geometry": {"coordinates": [-73.86898344618324, 40.757558946430045], "type": "Point"}, "properties": {"address": "99-13 NORTHERN BOULEVARD"}, "type": "Feature"}, {"geometry": {"coordinates": [0, 0], "type": "Point"}, "properties": {"address": "113 ROAD"}, "type": "Feature"}, {"geometry": {"coordinates": [-73.9474319883391, 40.66387134190491], "type": "Point"}, "properties": {"address": "EMPIRE BOULEVARD"}, "type": "Feature"}, {"geometry": {"coordinates": [-73.95339284536989, 40.67043942000311], "type": "Point"}, "properties": {"address": "451 EASTERN PARKWAY"}, "type": "Feature"}, {"geometry": {"coordinates": [-73.94748691216611, 40.67651929912715], "type": "Point"}, "properties": {"address": "100 NEW YORK AVENUE"}, "type": "Feature"}, {"geometry": {"coordinates": [-73.90431806822339, 40.64411405832214], "type": "Point"}, "properties": {"address": "9417 GLENWOOD ROAD"}, "type": "Feature"}, {"geometry": {"coordinates": [-73.82595893666496, 40.69063132137754], "type": "Point"}, "properties": {"address": "97-21 LEFFERTS BOULEVARD"}, "type": "Feature"}, {"geometry": {"coordinates": [-73.92824904702557, 40.69048803899262], "type": "Point"}, "properties": {"address": "817 LEXINGTON AVENUE"}, "type": "Feature"}, {"geometry": {"coordinates": [-73.9281160801241, 40.69006800610595], "type": "Point"}, "properties": {"address": "778 LEXINGTON AVENUE"}, "type": "Feature"}, {"geometry": {"coordinates": [-73.88228716898517, 40.67038589507878], "type": "Point"}, "properties": {"address": "515 ELTON STREET"}, "type": "Feature"}, {"geometry": {"coordinates": [-73.93769704974216, 40.697731497890764], "type": "Point"}, "properties": {"address": "9 LEWIS AVENUE"}, "type": "Feature"}, {"geometry": {"coordinates": [-73.77806100026561, 40.67547732320805], "type": "Point"}, "properties": {"address": "131-10 GUY R BREWER BLVD"}, "type": "Feature"}, {"geometry": {"coordinates": [-73.91051804895861, 40.65868836251007], "type": "Point"}, "properties": {"address": "871 THOMAS S BOYLAND ST"}, "type": "Feature"}, {"geometry": {"coordinates": [-73.94751841854804, 40.663970193412325], "type": "Point"}, "properties": {"address": "434 EMPIRE BOULEVARD"}, "type": "Feature"}, {"geometry": {"coordinates": [-73.80130976818435, 40.675731169155384], "type": "Point"}, "properties": {"address": "120-02 140 STREET"}, "type": "Feature"}, {"geometry": {"coordinates": [-73.98470778394062, 40.57796487770915], "type": "Point"}, "properties": {"address": "2835 WEST 17 STREET"}, "type": "Feature"}, {"geometry": {"coordinates": [-73.74455237080711, 40.67329706469806], "type": "Point"}, "properties": {"address": "227-20 137 AVENUE"}, "type": "Feature"}, {"geometry": {"coordinates": [-73.93125320579509, 40.67609902834767], "type": "Point"}, "properties": {"address": "1711 DEAN STREET"}, "type": "Feature"}, {"geometry": {"coordinates": [-73.85413737739898, 40.899267329738414], "type": "Point"}, "properties": {"address": "4421 WHITE PLAINS ROAD"}, "type": "Feature"}, {"geometry": {"coordinates": [-73.73199271677085, 40.71809076031351], "type": "Point"}, "properties": {"address": "96-50 222 STREET"}, "type": "Feature"}, {"geometry": {"coordinates": [-73.91619502600774, 40.64981875587643], "type": "Point"}, "properties": {"address": "9001 AVENUE B"}, "type": "Feature"}, {"geometry": {"coordinates": [-73.98223922528328, 40.669165679059574], "type": "Point"}, "properties": {"address": "417 7 STREET"}, "type": "Feature"}, {"geometry": {"coordinates": [-73.92253149846204, 40.69232607309731], "type": "Point"}, "properties": {"address": "977 BUSHWICK AVENUE"}, "type": "Feature"}, {"geometry": {"coordinates": [-73.95251847760011, 40.67830284420518], "type": "Point"}, "properties": {"address": "1317 BEDFORD AVENUE"}, "type": "Feature"}, {"geometry": {"coordinates": [-73.96004825731261, 40.68707250875089], "type": "Point"}, "properties": {"address": "384 CLASSON AVENUE"}, "type": "Feature"}, {"geometry": {"coordinates": [-73.97384119594817, 40.68469400925715], "type": "Point"}, "properties": {"address": "161 SOUTH PORTLAND AVE"}, "type": "Feature"}, {"geometry": {"coordinates": [-73.92395796693297, 40.69998492917166], "type": "Point"}, "properties": {"address": "171 WILSON AVENUE"}, "type": "Feature"}, {"geometry": {"coordinates": [-73.95910222527542, 40.64807986650766], "type": "Point"}, "properties": {"address": "261 EAST 21 STREET"}, "type": "Feature"}, {"geometry": {"coordinates": [-73.92245226783538, 40.69223818709307], "type": "Point"}, "properties": {"address": "975 BUSHWICK AVENUE"}, "type": "Feature"}, {"geometry": {"coordinates": [-73.86757966160133, 40.66297272241529], "type": "Point"}, "properties": {"address": "901 PINE STREET"}, "type": "Feature"}, {"geometry": {"coordinates": [-73.76959186548943, 40.67984409382585], "type": "Point"}, "properties": {"address": "128-10 174 PLACE"}, "type": "Feature"}, {"geometry": {"coordinates": [-73.89694896921183, 40.67449517070518], "type": "Point"}, "properties": {"address": "138 PENNSYLVANIA AVENUE"}, "type": "Feature"}, {"geometry": {"coordinates": [-73.76418819924683, 40.69797339805119], "type": "Point"}, "properties": {"address": "189-02 113 AVENUE"}, "type": "Feature"}, {"geometry": {"coordinates": [0, 0], "type": "Point"}, "properties": {"address": "113 AVENUE"}, "type": "Feature"}, {"geometry": {"coordinates": [-73.7990678216529, 40.70788782036709], "type": "Point"}, "properties": {"address": "88-24 163 STREET"}, "type": "Feature"}, {"geometry": {"coordinates": [-73.9550358893171, 40.65019183189734], "type": "Point"}, "properties": {"address": "2414 CHURCH AVENUE"}, "type": "Feature"}, {"geometry": {"coordinates": [0, 0], "type": "Point"}, "properties": {"address": "GLENWOOD ROAD"}, "type": "Feature"}, {"geometry": {"coordinates": [-73.93542695113409, 40.651099251703776], "type": "Point"}, "properties": {"address": "418 EAST 45 STREET"}, "type": "Feature"}, {"geometry": {"coordinates": [-73.92798700553897, 40.63262516688555], "type": "Point"}, "properties": {"address": "1627 UTICA AVENUE"}, "type": "Feature"}, {"geometry": {"coordinates": [-73.90468326091262, 40.82990395749608], "type": "Point"}, "properties": {"address": "1192 FULTON AVENUE"}, "type": "Feature"}, {"geometry": {"coordinates": [-73.95505065755482, 40.649667584064645], "type": "Point"}, "properties": {"address": "28 WOODS PLACE"}, "type": "Feature"}, {"geometry": {"coordinates": [-74.15836311820021, 40.6347646871298], "type": "Point"}, "properties": {"address": "80 UNION AVENUE"}, "type": "Feature"}, {"geometry": {"coordinates": [-73.92226983732357, 40.660039102202376], "type": "Point"}, "properties": {"address": "1089 CLARKSON AVENUE"}, "type": "Feature"}, {"geometry": {"coordinates": [-73.91896019080667, 40.815060459420714], "type": "Point"}, "properties": {"address": "2792 3 AVENUE"}, "type": "Feature"}, {"geometry": {"coordinates": [-73.96117996903223, 40.68172882503608], "type": "Point"}, "properties": {"address": "467 GRAND AVENUE"}, "type": "Feature"}, {"geometry": {"coordinates": [-73.88723394220408, 40.81483068545653], "type": "Point"}, "properties": {"address": "710 COSTER STREET"}, "type": "Feature"}, {"geometry": {"coordinates": [-73.86892132809926, 40.84415234307769], "type": "Point"}, "properties": {"address": "620 MORRIS PARK AVENUE"}, "type": "Feature"}, {"geometry": {"coordinates": [-73.88719086929176, 40.81466595995902], "type": "Point"}, "properties": {"address": "1281 SPOFFORD AVENUE"}, "type": "Feature"}, {"geometry": {"coordinates": [-73.92411057365712, 40.67047323665294], "type": "Point"}, "properties": {"address": "1603 ST JOHNS PLACE"}, "type": "Feature"}, {"geometry": {"coordinates": [0, 0], "type": "Point"}, "properties": {"address": "LEXINGTON AVENUE"}, "type": "Feature"}, {"geometry": {"coordinates": [-73.89754357687045, 40.69811172803493], "type": "Point"}, "properties": {"address": "1834 DECATUR STREET"}, "type": "Feature"}, {"geometry": {"coordinates": [-73.95349735166342, 40.670488868274546], "type": "Point"}, "properties": {"address": "447 EASTERN PARKWAY"}, "type": "Feature"}, {"geometry": {"coordinates": [-73.78268956320936, 40.592629003425074], "type": "Point"}, "properties": {"address": "52-05 ROCKAWAY BEACH BLVD"}, "type": "Feature"}, {"geometry": {"coordinates": [0, 0], "type": "Point"}, "properties": {"address": "GREENE AVENUE"}, "type": "Feature"}, {"geometry": {"coordinates": [-73.95457464365576, 40.65013949976472], "type": "Point"}, "properties": {"address": "11 WOODS PLACE"}, "type": "Feature"}, {"geometry": {"coordinates": [0, 0], "type": "Point"}, "properties": {"address": "222 STREET"}, "type": "Feature"}, {"geometry": {"coordinates": [-73.78945127124022, 40.6875181254641], "type": "Point"}, "properties": {"address": "157-18 MEYER AVENUE"}, "type": "Feature"}, {"geometry": {"coordinates": [-73.92239248218044, 40.65995409680888], "type": "Point"}, "properties": {"address": "1083 CLARKSON AVENUE"}, "type": "Feature"}, {"geometry": {"coordinates": [-73.73221648802858, 40.71896137389044], "type": "Point"}, "properties": {"address": "96-20 222 STREET"}, "type": "Feature"}, {"geometry": {"coordinates": [-73.74395904329639, 40.672905986012466], "type": "Point"}, "properties": {"address": "228-20 137 AVENUE"}, "type": "Feature"}, {"geometry": {"coordinates": [-73.93069855901845, 40.67557169871774], "type": "Point"}, "properties": {"address": "92 UTICA AVENUE"}, "type": "Feature"}, {"geometry": {"coordinates": [-73.77113727235107, 40.68337422298548], "type": "Point"}, "properties": {"address": "172-55 BROCHER ROAD"}, "type": "Feature"}, {"geometry": {"coordinates": [-73.77732507695804, 40.688576742807605], "type": "Point"}, "properties": {"address": "115-50 MERRICK BOULEVARD"}, "type": "Feature"}, {"geometry": {"coordinates": [-73.74585400024381, 40.67986273042939], "type": "Point"}, "properties": {"address": "131-72 223 STREET"}, "type": "Feature"}, {"geometry": {"coordinates": [-73.98465385474555, 40.57766568697193], "type": "Point"}, "properties": {"address": "2851 WEST 17 STREET"}, "type": "Feature"}, {"geometry": {"coordinates": [-73.95337831659707, 40.670595866390215], "type": "Point"}, "properties": {"address": "168 ROGERS AVENUE"}, "type": "Feature"}, {"geometry": {"coordinates": [-73.93081387192204, 40.675621174076376], "type": "Point"}, "properties": {"address": "1726 DEAN STREET"}, "type": "Feature"}], "properties": {"addresses": "79"}, "type": "FeatureCollection"}