{"features": [{"geometry": {"coordinates": [-73.89289577497253, 40.854760683303205], "type": "Point"}, "properties": {"address": "2261 BASSFORD AVENUE"}, "type": "Feature"}, {"geometry": {"coordinates": [-73.9009892860721, 40.82813599302324], "type": "Point"}, "properties": {"address": "779 HOME STREET"}, "type": "Feature"}, {"geometry": {"coordinates": [-73.86763080525697, 40.83881789531681], "type": "Point"}, "properties": {"address": "1527 BEACH AVENUE"}, "type": "Feature"}, {"geometry": {"coordinates": [-73.86187822105053, 40.6834722607243], "type": "Point"}, "properties": {"address": "94-27 77 STREET"}, "type": "Feature"}, {"geometry": {"coordinates": [-74.15818960696679, 40.623884564122996], "type": "Point"}, "properties": {"address": "28 ELEANOR PLACE"}, "type": "Feature"}, {"geometry": {"coordinates": [-73.77380631042953, 40.682040047224525], "type": "Point"}, "properties": {"address": "120-36 171 STREET"}, "type": "Feature"}, {"geometry": {"coordinates": [-74.14154323962842, 40.63071060665805], "type": "Point"}, "properties": {"address": "44 HOOKER PLACE"}, "type": "Feature"}, {"geometry": {"coordinates": [-73.81934909702095, 40.81977813246354], "type": "Point"}, "properties": {"address": "2860 SAMPSON AVENUE"}, "type": "Feature"}, {"geometry": {"coordinates": [-74.08296554971933, 40.621037511960196], "type": "Point"}, "properties": {"address": "253 GORDON STREET"}, "type": "Feature"}, {"geometry": {"coordinates": [-73.76403654342249, 40.660325638157346], "type": "Point"}, "properties": {"address": "183-02 146 TERRACE"}, "type": "Feature"}, {"geometry": {"coordinates": [-73.86549482308108, 40.88535183736331], "type": "Point"}, "properties": {"address": "3825 CARPENTER AVENUE"}, "type": "Feature"}, {"geometry": {"coordinates": [-73.89736299977429, 40.69593770989418], "type": "Point"}, "properties": {"address": "58-41 78 AVENUE"}, "type": "Feature"}, {"geometry": {"coordinates": [-73.81002925541097, 40.69393005091535], "type": "Point"}, "properties": {"address": "138-15 102 AVENUE"}, "type": "Feature"}, {"geometry": {"coordinates": [-73.8470410681532, 40.87378193031013], "type": "Point"}, "properties": {"address": "3249 FENTON AVENUE"}, "type": "Feature"}, {"geometry": {"coordinates": [-74.09035685849275, 40.6447057498001], "type": "Point"}, "properties": {"address": "58 FILLMORE STREET"}, "type": "Feature"}, {"geometry": {"coordinates": [-73.74816263019679, 40.608898366546576], "type": "Point"}, "properties": {"address": "12-41 AUGUSTINA AVENUE"}, "type": "Feature"}, {"geometry": {"coordinates": [-73.76454818614462, 40.60012501762575], "type": "Point"}, "properties": {"address": "29-05 OCEAN CREST BLVD"}, "type": "Feature"}, {"geometry": {"coordinates": [-73.79710868871392, 40.69504707982369], "type": "Point"}, "properties": {"address": "107-32 156 STREET"}, "type": "Feature"}, {"geometry": {"coordinates": [-73.80018046758512, 40.5881894590552], "type": "Point"}, "properties": {"address": "7210 SANDY DUNE WAY"}, "type": "Feature"}, {"geometry": {"coordinates": [-73.83402692409054, 40.68424516814136], "type": "Point"}, "properties": {"address": "103-36 108 STREET"}, "type": "Feature"}, {"geometry": {"coordinates": [-73.77921380095009, 40.680088031265214], "type": "Point"}, "properties": {"address": "120-45 164 STREET"}, "type": "Feature"}, {"geometry": {"coordinates": [-73.91957092083888, 40.81789618366502], "type": "Point"}, "properties": {"address": "334 EAST 151 STREET"}, "type": "Feature"}, {"geometry": {"coordinates": [-73.79986192701826, 40.59356323668125], "type": "Point"}, "properties": {"address": "69-30 GOUVERNEUR AVENUE"}, "type": "Feature"}, {"geometry": {"coordinates": [-74.08016279194018, 40.63882025074189], "type": "Point"}, "properties": {"address": "220 DANIEL LOW TERRACE"}, "type": "Feature"}, {"geometry": {"coordinates": [-73.88684994825798, 40.813323456316844], "type": "Point"}, "properties": {"address": "642 COSTER STREET"}, "type": "Feature"}, {"geometry": {"coordinates": [-73.89965619994017, 40.83036080516768], "type": "Point"}, "properties": {"address": "768 EAST 169 STREET"}, "type": "Feature"}, {"geometry": {"coordinates": [-73.85051057644141, 40.88903050013725], "type": "Point"}, "properties": {"address": "963 EAST 230 STREET"}, "type": "Feature"}, {"geometry": {"coordinates": [-74.16216648696896, 40.6357008496672], "type": "Point"}, "properties": {"address": "87 ANDROS AVENUE"}, "type": "Feature"}, {"geometry": {"coordinates": [-73.7479424195148, 40.67771541290904], "type": "Point"}, "properties": {"address": "221-17 134 ROAD"}, "type": "Feature"}, {"geometry": {"coordinates": [-73.74584915394192, 40.65653750588945], "type": "Point"}, "properties": {"address": "235-18 147 ROAD"}, "type": "Feature"}, {"geometry": {"coordinates": [-73.7638872420543, 40.66177458058328], "type": "Point"}, "properties": {"address": "182-14 146 ROAD"}, "type": "Feature"}, {"geometry": {"coordinates": [-73.76387901394743, 40.594856358113645], "type": "Point"}, "properties": {"address": "203 BEACH 31 STREET"}, "type": "Feature"}, {"geometry": {"coordinates": [-74.15237251962137, 40.63523665149775], "type": "Point"}, "properties": {"address": "93 MARINERS LANE"}, "type": "Feature"}, {"geometry": {"coordinates": [-74.0939952407436, 40.64391233511976], "type": "Point"}, "properties": {"address": "161 FILLMORE STREET"}, "type": "Feature"}, {"geometry": {"coordinates": [0, 0], "type": "Point"}, "properties": {"address": "NORTH BURGHER AVENUE"}, "type": "Feature"}, {"geometry": {"coordinates": [-74.2326428021537, 40.5173937135829], "type": "Point"}, "properties": {"address": "21 MURRAY STREET"}, "type": "Feature"}, {"geometry": {"coordinates": [-73.89801278220402, 40.85581379702746], "type": "Point"}, "properties": {"address": "2253 TIEBOUT AVENUE"}, "type": "Feature"}, {"geometry": {"coordinates": [-73.79778205724692, 40.68586149645871], "type": "Point"}, "properties": {"address": "111-60 146 STREET"}, "type": "Feature"}, {"geometry": {"coordinates": [-73.74032278043354, 40.70593403263012], "type": "Point"}, "properties": {"address": "215-34 111 ROAD"}, "type": "Feature"}, {"geometry": {"coordinates": [-73.90580105528734, 40.84690561698715], "type": "Point"}, "properties": {"address": "247 EAST 175 STREET"}, "type": "Feature"}, {"geometry": {"coordinates": [-73.85680538134233, 40.711929332679674], "type": "Point"}, "properties": {"address": "68-66 SELFRIDGE STREET"}, "type": "Feature"}, {"geometry": {"coordinates": [-73.85121106330413, 40.887930784876566], "type": "Point"}, "properties": {"address": "958 EAST 229 STREET"}, "type": "Feature"}, {"geometry": {"coordinates": [-73.8930001005117, 40.85732158826199], "type": "Point"}, "properties": {"address": "444 EAST 186 STREET"}, "type": "Feature"}, {"geometry": {"coordinates": [-73.82815168968276, 40.651326601915855], "type": "Point"}, "properties": {"address": "102-23 MONCRIFF DRIVE"}, "type": "Feature"}, {"geometry": {"coordinates": [-73.88846666217064, 40.840223260013204], "type": "Point"}, "properties": {"address": "865 EAST 175 STREET"}, "type": "Feature"}, {"geometry": {"coordinates": [-73.81846206031716, 40.8244345342681], "type": "Point"}, "properties": {"address": "559 LOGAN AVENUE"}, "type": "Feature"}, {"geometry": {"coordinates": [-74.12878410276402, 40.605437806667595], "type": "Point"}, "properties": {"address": "11 LIVINGSTON AVENUE"}, "type": "Feature"}, {"geometry": {"coordinates": [-73.90309374492094, 40.82713321448304], "type": "Point"}, "properties": {"address": "1110 JACKSON AVENUE"}, "type": "Feature"}, {"geometry": {"coordinates": [-74.15559956868019, 40.631631162437685], "type": "Point"}, "properties": {"address": "184 VAN PELT AVENUE"}, "type": "Feature"}, {"geometry": {"coordinates": [-73.70913482149341, 40.72991465685369], "type": "Point"}, "properties": {"address": "87-35 256 STREET"}, "type": "Feature"}, {"geometry": {"coordinates": [-74.14215609904582, 40.544638287289544], "type": "Point"}, "properties": {"address": "316 HILLSIDE TERRACE"}, "type": "Feature"}, {"geometry": {"coordinates": [-73.8986196622706, 40.69482444718888], "type": "Point"}, "properties": {"address": "78-08 CYPRESS AVENUE"}, "type": "Feature"}], "properties": {"addresses": "52"}, "type": "FeatureCollection"}